[
  { "city": "New York", "state": "NY", "lat": 40.7128, "lng": -74.0060 },
  { "city": "Los Angeles", "state": "CA", "lat": 34.0522, "lng": -118.2437 },
  { "city": "Chicago", "state": "IL", "lat": 41.8781, "lng": -87.6298 },
  { "city": "Houston", "state": "TX", "lat": 29.7604, "lng": -95.3698 },
  { "city": "Phoenix", "state": "AZ", "lat": 33.4484, "lng": -112.0740 },
  { "city": "Philadelphia", "state": "PA", "lat": 39.9526, "lng": -75.1652 },
  { "city": "San Antonio", "state": "TX", "lat": 29.4241, "lng": -98.4936 },
  { "city": "San Diego", "state": "CA", "lat": 32.7157, "lng": -117.1611 },
  { "city": "Dallas", "state": "TX", "lat": 32.7767, "lng": -96.7970 },
  { "city": "San Jose", "state": "CA", "lat": 37.3382, "lng": -121.8863 },
  { "city": "Austin", "state": "TX", "lat": 30.2672, "lng": -97.7431 },
  { "city": "Jacksonville", "state": "FL", "lat": 30.3322, "lng": -81.6557 },
  { "city": "Fort Worth", "state": "TX", "lat": 32.7555, "lng": -97.3308 },
  { "city": "Columbus", "state": "OH", "lat": 39.9612, "lng": -82.9988 },
  { "city": "Charlotte", "state": "NC", "lat": 35.2271, "lng": -80.8431 },
  { "city": "Indianapolis", "state": "IN", "lat": 39.7684, "lng": -86.1581 },
  { "city": "San Francisco", "state": "CA", "lat": 37.7749, "lng": -122.4194 },
  { "city": "Seattle", "state": "WA", "lat": 47.6062, "lng": -122.3321 },
  { "city": "Denver", "state": "CO", "lat": 39.7392, "lng": -104.9903 },
  { "city": "Washington", "state": "DC", "lat": 38.9072, "lng": -77.0369 },
  { "city": "Boston", "state": "MA", "lat": 42.3601, "lng": -71.0589 },
  { "city": "El Paso", "state": "TX", "lat": 31.7619, "lng": -106.4850 },
  { "city": "Nashville", "state": "TN", "lat": 36.1627, "lng": -86.7816 },
  { "city": "Detroit", "state": "MI", "lat": 42.3314, "lng": -83.0458 },
  { "city": "Oklahoma City", "state": "OK", "lat": 35.4676, "lng": -97.5164 },
  { "city": "Portland", "state": "OR", "lat": 45.5152, "lng": -122.6784 },
  { "city": "Las Vegas", "state": "NV", "lat": 36.1699, "lng": -115.1398 },
  { "city": "Memphis", "state": "TN", "lat": 35.1495, "lng": -90.0490 },
  { "city": "Louisville", "state": "KY", "lat": 38.2527, "lng": -85.7585 },
  { "city": "Baltimore", "state": "MD", "lat": 39.2904, "lng": -76.6122 },
  { "city": "Milwaukee", "state": "WI", "lat": 43.0389, "lng": -87.9065 },
  { "city": "Albuquerque", "state": "NM", "lat": 35.0844, "lng": -106.6504 },
  { "city": "Tucson", "state": "AZ", "lat": 32.2226, "lng": -110.9747 },
  { "city": "Fresno", "state": "CA", "lat": 36.7378, "lng": -119.7871 },
  { "city": "Sacramento", "state": "CA", "lat": 38.5816, "lng": -121.4944 },
  { "city": "Kansas City", "state": "MO", "lat": 39.0997, "lng": -94.5786 },
  { "city": "Mesa", "state": "AZ", "lat": 33.4152, "lng": -111.8315 },
  { "city": "Atlanta", "state": "GA", "lat": 33.7490, "lng": -84.3880 },
  { "city": "Omaha", "state": "NE", "lat": 41.2565, "lng": -95.9345 },
  { "city": "Raleigh", "state": "NC", "lat": 35.7796, "lng": -78.6382 },
  { "city": "Miami", "state": "FL", "lat": 25.7617, "lng": -80.1918 },
  { "city": "Long Beach", "state": "CA", "lat": 33.7701, "lng": -118.1937 },
  { "city": "Virginia Beach", "state": "VA", "lat": 36.8529, "lng": -75.9780 },
  { "city": "Oakland", "state": "CA", "lat": 37.8044, "lng": -122.2712 },
  { "city": "Minneapolis", "state": "MN", "lat": 44.9778, "lng": -93.2650 },
  { "city": "Tulsa", "state": "OK", "lat": 36.1540, "lng": -95.9928 },
  { "city": "Arlington", "state": "TX", "lat": 32.7357, "lng": -97.1081 },
  { "city": "Tampa", "state": "FL", "lat": 27.9506, "lng": -82.4572 },
  { "city": "New Orleans", "state": "LA", "lat": 29.9511, "lng": -90.0715 },
  { "city": "Wichita", "state": "KS", "lat": 37.6872, "lng": -97.3301 },
  { "city": "Bakersfield", "state": "CA", "lat": 35.3733, "lng": -119.0187 },
  { "city": "Cleveland", "state": "OH", "lat": 41.4993, "lng": -81.6944 },
  { "city": "Aurora", "state": "CO", "lat": 39.7294, "lng": -104.8319 },
  { "city": "Anaheim", "state": "CA", "lat": 33.8366, "lng": -117.9143 },
  { "city": "Honolulu", "state": "HI", "lat": 21.3069, "lng": -157.8583 },
  { "city": "Santa Ana", "state": "CA", "lat": 33.7455, "lng": -117.8677 },
  { "city": "Riverside", "state": "CA", "lat": 33.9806, "lng": -117.3755 },
  { "city": "Corpus Christi", "state": "TX", "lat": 27.8006, "lng": -97.3964 },
  { "city": "Lexington", "state": "KY", "lat": 38.0406, "lng": -84.5037 },
  { "city": "Stockton", "state": "CA", "lat": 37.9577, "lng": -121.2908 },
  { "city": "Henderson", "state": "NV", "lat": 36.0395, "lng": -114.9817 },
  { "city": "St. Paul", "state": "MN", "lat": 44.9537, "lng": -93.0900 },
  { "city": "St. Louis", "state": "MO", "lat": 38.6270, "lng": -90.1994 },
  { "city": "Cincinnati", "state": "OH", "lat": 39.1031, "lng": -84.5120 },
  { "city": "Pittsburgh", "state": "PA", "lat": 40.4406, "lng": -79.9959 },
  { "city": "Greensboro", "state": "NC", "lat": 36.0726, "lng": -79.7920 },
  { "city": "Anchorage", "state": "AK", "lat": 61.2181, "lng": -149.9003 },
  { "city": "Plano", "state": "TX", "lat": 33.0198, "lng": -96.6989 },
  { "city": "Lincoln", "state": "NE", "lat": 40.8136, "lng": -96.7026 },
  { "city": "Orlando", "state": "FL", "lat": 28.5383, "lng": -81.3792 },
  { "city": "Irvine", "state": "CA", "lat": 33.6846, "lng": -117.8265 },
  { "city": "Newark", "state": "NJ", "lat": 40.7357, "lng": -74.1724 },
  { "city": "Toledo", "state": "OH", "lat": 41.6528, "lng": -83.5379 },
  { "city": "Durham", "state": "NC", "lat": 35.9940, "lng": -78.8986 },
  { "city": "Chula Vista", "state": "CA", "lat": 32.6401, "lng": -117.0842 },
  { "city": "Fort Wayne", "state": "IN", "lat": 41.0793, "lng": -85.1394 },
  { "city": "Jersey City", "state": "NJ", "lat": 40.7178, "lng": -74.0431 },
  { "city": "St. Petersburg", "state": "FL", "lat": 27.7676, "lng": -82.6403 },
  { "city": "Laredo", "state": "TX", "lat": 27.5036, "lng": -99.5075 },
  { "city": "Madison", "state": "WI", "lat": 43.0731, "lng": -89.4012 },
  { "city": "Lubbock", "state": "TX", "lat": 33.5779, "lng": -101.8552 },
  { "city": "Chandler", "state": "AZ", "lat": 33.3062, "lng": -111.8413 },
  { "city": "Scottsdale", "state": "AZ", "lat": 33.4942, "lng": -111.9261 },
  { "city": "Reno", "state": "NV", "lat": 39.5296, "lng": -119.8138 },
  { "city": "Buffalo", "state": "NY", "lat": 42.8864, "lng": -78.8784 },
  { "city": "Gilbert", "state": "AZ", "lat": 33.3528, "lng": -111.7890 },
  { "city": "Glendale", "state": "AZ", "lat": 33.5387, "lng": -112.1860 },
  { "city": "North Las Vegas", "state": "NV", "lat": 36.1989, "lng": -115.1175 },
  { "city": "Winston-Salem", "state": "NC", "lat": 36.0999, "lng": -80.2442 },
  { "city": "Chesapeake", "state": "VA", "lat": 36.7682, "lng": -76.2875 },
  { "city": "Norfolk", "state": "VA", "lat": 36.8508, "lng": -76.2859 },
  { "city": "Fremont", "state": "CA", "lat": 37.5483, "lng": -121.9886 },
  { "city": "Garland", "state": "TX", "lat": 32.9126, "lng": -96.6389 },
  { "city": "Irving", "state": "TX", "lat": 32.8140, "lng": -96.9489 },
  { "city": "Hialeah", "state": "FL", "lat": 25.8576, "lng": -80.2781 },
  { "city": "Richmond", "state": "VA", "lat": 37.5407, "lng": -77.4360 },
  { "city": "Boise", "state": "ID", "lat": 43.6150, "lng": -116.2023 },
  { "city": "Spokane", "state": "WA", "lat": 47.6588, "lng": -117.4260 },
  { "city": "Baton Rouge", "state": "LA", "lat": 30.4515, "lng": -91.1871 },
  { "city": "Des Moines", "state": "IA", "lat": 41.5868, "lng": -93.6250 },
  { "city": "Little Rock", "state": "AR", "lat": 34.7465, "lng": -92.2896 },
  { "city": "Salt Lake City", "state": "UT", "lat": 40.7608, "lng": -111.8910 },
  { "city": "Birmingham", "state": "AL", "lat": 33.5186, "lng": -86.8104 },
  { "city": "Montgomery", "state": "AL", "lat": 32.3668, "lng": -86.3000 },
  { "city": "Jackson", "state": "MS", "lat": 32.2988, "lng": -90.1848 },
  { "city": "Charleston", "state": "SC", "lat": 32.7765, "lng": -79.9311 },
  { "city": "Columbia", "state": "SC", "lat": 34.0007, "lng": -81.0348 },
  { "city": "Savannah", "state": "GA", "lat": 32.0809, "lng": -81.0912 },
  { "city": "Knoxville", "state": "TN", "lat": 35.9606, "lng": -83.9207 },
  { "city": "Chattanooga", "state": "TN", "lat": 35.0456, "lng": -85.3097 },
  { "city": "Providence", "state": "RI", "lat": 41.8240, "lng": -71.4128 },
  { "city": "Hartford", "state": "CT", "lat": 41.7658, "lng": -72.6734 },
  { "city": "New Haven", "state": "CT", "lat": 41.3083, "lng": -72.9279 },
  { "city": "Wilmington", "state": "DE", "lat": 39.7391, "lng": -75.5398 },
  { "city": "Dover", "state": "DE", "lat": 39.1582, "lng": -75.5244 },
  { "city": "Cheyenne", "state": "WY", "lat": 41.1400, "lng": -104.8202 },
  { "city": "Billings", "state": "MT", "lat": 45.7833, "lng": -108.5007 },
  { "city": "Helena", "state": "MT", "lat": 46.5891, "lng": -112.0391 },
  { "city": "Bismarck", "state": "ND", "lat": 46.8083, "lng": -100.7837 },
  { "city": "Fargo", "state": "ND", "lat": 46.8772, "lng": -96.7898 },
  { "city": "Sioux Falls", "state": "SD", "lat": 43.5446, "lng": -96.7311 },
  { "city": "Rapid City", "state": "SD", "lat": 44.0805, "lng": -103.2310 },
  { "city": "Albany", "state": "NY", "lat": 42.6526, "lng": -73.7562 },
  { "city": "Rochester", "state": "NY", "lat": 43.1566, "lng": -77.6088 },
  { "city": "Syracuse", "state": "NY", "lat": 43.0481, "lng": -76.1474 },
  { "city": "Springfield", "state": "IL", "lat": 39.7817, "lng": -89.6501 },
  { "city": "Peoria", "state": "IL", "lat": 40.6936, "lng": -89.5890 },
  { "city": "Grand Rapids", "state": "MI", "lat": 42.9634, "lng": -85.6681 },
  { "city": "Lansing", "state": "MI", "lat": 42.7325, "lng": -84.5555 },
  { "city": "Flint", "state": "MI", "lat": 43.0125, "lng": -83.6875 },
  { "city": "Akron", "state": "OH", "lat": 41.0814, "lng": -81.5190 },
  { "city": "Dayton", "state": "OH", "lat": 39.7589, "lng": -84.1916 },
  { "city": "Harrisburg", "state": "PA", "lat": 40.2732, "lng": -76.8867 },
  { "city": "Allentown", "state": "PA", "lat": 40.6023, "lng": -75.4714 },
  { "city": "Scranton", "state": "PA", "lat": 41.4089, "lng": -75.6624 },
  { "city": "Manchester", "state": "NH", "lat": 42.9956, "lng": -71.4548 },
  { "city": "Concord", "state": "NH", "lat": 43.2081, "lng": -71.5376 },
  { "city": "Burlington", "state": "VT", "lat": 44.4759, "lng": -73.2121 },
  { "city": "Augusta", "state": "ME", "lat": 44.3106, "lng": -69.7795 },
  { "city": "Portland", "state": "ME", "lat": 43.6591, "lng": -70.2568 },
  { "city": "Trenton", "state": "NJ", "lat": 40.2171, "lng": -74.7429 },
  { "city": "Atlantic City", "state": "NJ", "lat": 39.3643, "lng": -74.4229 },
  { "city": "Santa Fe", "state": "NM", "lat": 35.6870, "lng": -105.9378 },
  { "city": "Las Cruces", "state": "NM", "lat": 32.3199, "lng": -106.7637 },
  { "city": "Amarillo", "state": "TX", "lat": 35.2220, "lng": -101.8313 },
  { "city": "Lafayette", "state": "LA", "lat": 30.2241, "lng": -92.0198 },
  { "city": "Shreveport", "state": "LA", "lat": 32.5252, "lng": -93.7502 },
  { "city": "Mobile", "state": "AL", "lat": 30.6954, "lng": -88.0399 },
  { "city": "Huntsville", "state": "AL", "lat": 34.7304, "lng": -86.5861 },
  { "city": "Pensacola", "state": "FL", "lat": 30.4213, "lng": -87.2169 },
  { "city": "Tallahassee", "state": "FL", "lat": 30.4383, "lng": -84.2807 }
]
